[{"idx":1,"avivaCode":10282,"zone":"CENTRAL","estate":"BALESTIER","name":"ACCESS MEDICAL (WHAMPOA)","address":"87 WHAMPOA DRIVE #01-869","postalCode":"320087","telephone":"62521070","fax":" 67107327","lat":1.323111,"lng":103.85568},{"idx":2,"avivaCode":10191,"zone":"CENTRAL","estate":"BUKIT TIMAH","name":"RIDGEWOOD MEDICAL CLINIC","address":"5 RIDGEWOOD CLOSE UNIT G4 RIDGEWOOD CONDOMINIUM","postalCode":"276696","telephone":"64691666","fax":" 64683575","lat":1.316581,"lng":103.778988},{"idx":3,"avivaCode":10020,"zone":"CENTRAL","estate":"BUKIT TIMAH","name":"CHUNGKIAW CLINIC","address":"118 UPPER BUKIT TIMAH ROAD GOH & GOH BUILDING","postalCode":"588173","telephone":"64662255","fax":" 64676480","lat":1.341009,"lng":103.776295},{"idx":4,"avivaCode":10143,"zone":"CENTRAL","estate":"BUKIT TIMAH","name":"MANDARIN MEDICAL CENTRE","address":"66 JALAN JURONG KECHIL JK BUILDING","postalCode":"598586","telephone":"64667822","fax":" 64664353","lat":1.340432,"lng":103.77424},{"idx":5,"avivaCode":10178,"zone":"CENTRAL","estate":"HOLLAND","name":"MAY MEDICAL CLINIC & SURGERY","address":"BLK 41 HOLLAND DRIVE #01-19","postalCode":"270041","telephone":"67743318","fax":" 67743329","lat":1.307677,"lng":103.793406},{"idx":6,"avivaCode":10177,"zone":"CENTRAL","estate":"HOLLAND","name":"HEALTHWAY MEDICAL CLINIC (HOLLAND DRIVE)","address":"BLK 41 HOLLAND DRIVE #01-07","postalCode":"270041","telephone":"67789793","fax":" 67789521","lat":1.307677,"lng":103.793406},{"idx":7,"avivaCode":10158,"zone":"CENTRAL","estate":"HOLLAND","name":"THE ARCADIA CLINIC","address":"2 PANDAN VALLEY #01-211 ACACIA COURT","postalCode":"597626","telephone":"64695122","fax":" 64695762","lat":1.320457,"lng":103.778986},{"idx":8,"avivaCode":10275,"zone":"CENTRAL","estate":"LITTLE INDIA","name":"TAYKA MEDICAL","address":"29A DESKER ROAD","postalCode":"209562","telephone":"63924473","fax":" 63924593","lat":1.309335,"lng":103.854942},{"idx":9,"avivaCode":10081,"zone":"CENTRAL","estate":"LITTLE INDIA","name":"APOLLO MEDICAL CENTRE","address":"BLK 668 CHANDER ROAD #01-24","postalCode":"210668","telephone":"62962777","fax":" 62964348","lat":1.307622,"lng":103.851645},{"idx":10,"avivaCode":10182,"zone":"CENTRAL","estate":"NOVENA","name":"MHC MEDICAL CENTRE (NOVENA)","address":"10 SINARAN DRIVE #09-10 SQUARE 2","postalCode":"307506","telephone":"63976568","fax":" 63976578","lat":1.32099,"lng":103.844188},{"idx":11,"avivaCode":10106,"zone":"CENTRAL","estate":"ORCHARD","name":"DRS FERNANDEZ & PARTNERS","address":"9 PENANG ROAD #07-06 PARK MALL","postalCode":"238459","telephone":"63380686","fax":" 63347391","lat":1.29802,"lng":103.844848},{"idx":12,"avivaCode":10083,"zone":"CENTRAL","estate":"ORCHARD","name":"ATRIA MEDICAL CLINIC","address":"290 ORCHARD ROAD #12-01 PARAGON MEDICAL TOWER, LIFTLOBBY 1","postalCode":"238859","telephone":"67341433","fax":" 67362866","lat":1.303663,"lng":103.835502},{"idx":13,"avivaCode":10112,"zone":"CENTRAL","estate":"ORCHARD","name":"FULLERTON HEALTHCARE GROUP @ DRS TRYTHALL HOYDAVIES, NGEE ANN CITY","address":"391B ORCHARD ROAD #25-07 NGEE ANN CITY TOWER B","postalCode":"238874","telephone":"68365242","lat":1.30322,"lng":103.834065},{"idx":14,"avivaCode":10103,"zone":"CENTRAL","estate":"ORCHARD","name":"DR RICHARD CHOO & PARTNERS PTE LTD","address":"541 ORCHARD ROAD #10-02 LIAT TOWERS","postalCode":"238881","telephone":"67345260","fax":" 67371960","lat":1.305095,"lng":103.830831},{"idx":15,"avivaCode":10146,"zone":"CENTRAL","estate":"ORCHARD","name":"NEWCASTLE CLINIC PTE LTD","address":"541 ORCHARD ROAD #18-02A LIAT TOWERS","postalCode":"238881","telephone":"67362322","fax":" 67389186","lat":1.305095,"lng":103.830831},{"idx":16,"avivaCode":10283,"zone":"CENTRAL","estate":"ORCHARD","name":"DR TAN & PARTNERS @ SOMERSET","address":"1 GRANGE ROAD #10-08 ORCHARD BUILDING","postalCode":"239693","telephone":"62620762","fax":" 62620766","lat":1.301405,"lng":103.837355},{"idx":17,"avivaCode":10093,"zone":"CENTRAL","estate":"ORCHARD","name":"CHONG'S MEDICAL CENTRE","address":"190 CLEMENCEAU AVENUE #01-29/30 SINGAPORE SHOPPINGCENTRE","postalCode":"239924","telephone":"63383297","fax":" 63325629","lat":1.298332,"lng":103.844088},{"idx":18,"avivaCode":10270,"zone":"CENTRAL","estate":"RIVER VALLEY","name":"PINNACLE FAMILY CLINIC","address":"240 RIVER VALLEY ROAD","postalCode":"238297","telephone":"68366986","fax":" 68365969","lat":1.294146,"lng":103.84236},{"idx":19,"avivaCode":10108,"zone":"CENTRAL","estate":"SERANGOON ROAD","name":"DRS LIM & CHAN CLINIC","address":"BLK 2 LORONG LEW LIAN #01-50","postalCode":"531002","telephone":"62803009","fax":" 62832151","lat":1.350412,"lng":103.87543},{"idx":20,"avivaCode":10067,"zone":"CENTRAL","estate":"SERANGOON ROAD","name":"STERLING CLINIC & SURGERY","address":"BLK 3 LORONG LEW LIAN #01-64","postalCode":"531003","telephone":"62849971","fax":" 64874451","lat":1.35037,"lng":103.876036},{"idx":21,"avivaCode":10296,"zone":"CENTRAL","estate":"SERANGOON ROAD","name":"SIMON ROAD FAMILY CLINIC","address":"9 SIMON ROAD","postalCode":"545895","telephone":"62878755","fax":" 62874231","lat":1.361843,"lng":103.885913},{"idx":22,"avivaCode":10046,"zone":"CENTRAL","estate":"TOA PAYOH","name":"MAKE-WELL FAMILY CLINIC & SURGERY","address":"BLK 70 LORONG 4 TOA PAYOH #01-351","postalCode":"310070","telephone":"62534235","fax":" 63545461","lat":1.33457,"lng":103.852334},{"idx":23,"avivaCode":10086,"zone":"CENTRAL","estate":"TOA PAYOH","name":"CAMRY MEDICAL CENTRE","address":"BLK 95 LORONG 4 TOA PAYOH #01-66","postalCode":"310095","telephone":"62580553","fax":" 62589353","lat":1.33904,"lng":103.848984},{"idx":24,"avivaCode":10105,"zone":"CENTRAL","estate":"TOA PAYOH","name":"DRS CHAN & TANG FAMILY CLINIC","address":"BLK 125 LORONG 1 TOA PAYOH #01-549","postalCode":"310125","telephone":"62511782","fax":" 62511023","lat":1.338351,"lng":103.845578},{"idx":25,"avivaCode":10011,"zone":"CENTRAL","estate":"TOA PAYOH","name":"MEDIVIEW CLINIC AND SURGERY","address":"BLK 150 LORONG 1 TOA PAYOH #01-999","postalCode":"310150","telephone":"62532351","fax":" 64423715","lat":1.333775,"lng":103.844532},{"idx":26,"avivaCode":10284,"zone":"CENTRAL","estate":"TOA PAYOH","name":"DOCTORS INC MEDICAL GROUP PTE LTD","address":"BLK 190 TOA PAYOH LORONG 6 #01-590","postalCode":"310190","telephone":"63563633","fax":" 63562622","lat":1.332864,"lng":103.848643},{"idx":27,"avivaCode":10280,"zone":"CENTRAL","estate":"TOA PAYOH","name":"MEI LING CLINIC (TOA PAYOH) LLP","address":"BLK 500 LORONG 6 TOA PAYOH #04-33 HDB HUB","postalCode":"310500","telephone":"62535600","fax":" 62530722","lat":1.332766,"lng":103.846995},{"idx":28,"avivaCode":10063,"zone":"CENTRAL-EAST","estate":"ALJUNIED","name":"S T MEDICAL CENTRE","address":"BLK 95 ALJUNIED CRESCENT #01-521","postalCode":"380095","telephone":"67458119","fax":" 67458119","lat":1.321495,"lng":103.886428},{"idx":29,"avivaCode":10010,"zone":"CENTRAL-EAST","estate":"BOON KENG","name":"TAN-TEOH CLINIC & SURGERY","address":"BLK 101 TOWNER ROAD #01-216","postalCode":"322101","telephone":"62992292","fax":" 62995662","lat":1.319499,"lng":103.861151},{"idx":30,"avivaCode":10222,"zone":"CENTRAL-EAST","estate":"EUNOS","name":"SHENTON MEDICAL GROUP (EUNOS)","address":"10 EUNOS ROAD 8 #B1-01 SINGAPORE POST CENTRE","postalCode":"408600","telephone":"68488018","fax":" 67478474","lat":1.319088,"lng":103.894795},{"idx":31,"avivaCode":10299,"zone":"CENTRAL-EAST","estate":"EUNOS","name":"HEALTHWAY MEDICAL CLINIC (JALAN DAMAI)","address":"BLK 661 JALAN DAMAI #01-129","postalCode":"410661","telephone":"67427994","fax":" 67443904","lat":1.334597,"lng":103.907852},{"idx":32,"avivaCode":10253,"zone":"CENTRAL-EAST","estate":"GEYLANG","name":"TJ MEDICAL CLINIC & SURGERY","address":"48 SIMS PLACE #01-167","postalCode":"380048","telephone":"67424413","fax":" 67483813","lat":1.317669,"lng":103.879483},{"idx":33,"avivaCode":10154,"zone":"CENTRAL-EAST","estate":"GEYLANG","name":"SIMS DRIVE MEDICAL CLINIC","address":"BLK 53 SIMS PLACE #01-174","postalCode":"380053","telephone":"67411607","fax":" 67411607","lat":1.317902,"lng":103.880071},{"idx":34,"avivaCode":10080,"zone":"CENTRAL-EAST","estate":"GEYLANG","name":"ANTEH DISPENSARY PTE LTD","address":"368 GEYLANG ROAD","postalCode":"389381","telephone":"67441809","fax":" 68418948","lat":1.312712,"lng":103.881455},{"idx":35,"avivaCode":10141,"zone":"CENTRAL-EAST","estate":"KALLANG","name":"LOW MEDICAL CLINIC","address":"BLK 67 KALLANG BAHRU #01-447","postalCode":"330067","telephone":"62950805","fax":" 62977792","lat":1.32181,"lng":103.869214},{"idx":36,"avivaCode":10232,"zone":"CENTRAL-EAST","estate":"KALLANG","name":"THE CLINIC @ APERIA","address":"12 KALLANG AVENUE #03-15 THE APERIA","postalCode":"339511","telephone":"63416892","fax":" 63416892","lat":1.309726,"lng":103.864273},{"idx":37,"avivaCode":10018,"zone":"CENTRAL-EAST","estate":"KALLANG","name":"CHOONG'S CLINIC (21)","address":"BLK 21 OLD AIRPORT ROAD #01-97","postalCode":"390021","telephone":"63442400","fax":" 63442400","lat":1.307588,"lng":103.884406},{"idx":38,"avivaCode":10028,"zone":"CENTRAL-EAST","estate":"KEMBANGAN","name":"HEALTHWAY MEDICAL CLINIC","address":"BLK 110 LENGKONG TIGA #01-231","postalCode":"410110","telephone":"67494062","fax":" 67476487","lat":1.323858,"lng":103.910747},{"idx":39,"avivaCode":10157,"zone":"CENTRAL-EAST","estate":"LAVENDER","name":"TEXTILE CENTRE CLINIC","address":"200 JALAN SULTAN #03-32 TEXTILE CENTRE","postalCode":"199018","telephone":"62982400","fax":" 62917933","lat":1.303914,"lng":103.861428},{"idx":40,"avivaCode":10292,"zone":"CENTRAL-EAST","estate":"LAVENDER","name":"KING GEORGE'S MEDICAL CLINIC PTE LTD","address":"BLK 803 KING GEORGE'S AVENUE #01-144","postalCode":"200803","telephone":"62939883","fax":" 62954782","lat":1.309107,"lng":103.861346},{"idx":41,"avivaCode":10230,"zone":"CENTRAL-EAST","estate":"MACPHERSON","name":"ACCESS MEDICAL (CIRCUIT ROAD)","address":"88 CIRCUIT ROAD #01-965","postalCode":"370088","telephone":"65478840","fax":" 65478842","lat":1.323463,"lng":103.885854},{"idx":42,"avivaCode":10300,"zone":"CENTRAL-EAST","estate":"PAYA LEBAR","name":"HISEMAINN MEDICAL CLINIC (UBI)","address":"10 UBI CRESCENT #02-08 UBI TECHPARK LOBBY A","postalCode":"408564","telephone":"67428193","fax":" 67428693","lat":1.326385,"lng":103.896203},{"idx":43,"avivaCode":10221,"zone":"CENTRAL-EAST","estate":"PAYA LEBAR","name":"PHOENIX MEDICAL GROUP (PAYA LEBAR)","address":"60 PAYA LEBAR ROAD #02-09 PAYA LEBAR SQUARE","postalCode":"409051","telephone":"67022940","fax":" 67022941","lat":1.318894,"lng":103.89245},{"idx":44,"avivaCode":10262,"zone":"CENTRAL-EAST","estate":"PAYA LEBAR","name":"TAI SENG CLINIC","address":"137 UPPER PAYA LEBAR ROAD","postalCode":"534844","telephone":"62882434","fax":" 62882434","lat":1.338765,"lng":103.886207},{"idx":45,"avivaCode":10119,"zone":"CENTRAL-EAST","estate":"POTONG","name":"PASIR GOH MEDICAL CLINIC","address":"BLK 136 POTONG PASIR AVENUE 3 #01-164","postalCode":"350136","telephone":"62827886","fax":" 62827886","lat":1.33421,"lng":103.866788},{"idx":46,"avivaCode":10078,"zone":"CENTRAL-EAST","estate":"UBI ROAD","name":"ADVANCE CLINIC & SURGERY PTE LTD","address":"BLK 301 UBI AVENUE 1 #01-269","postalCode":"400301","telephone":"67421156","fax":" 67426191","lat":1.330958,"lng":103.901701},{"idx":47,"avivaCode":10087,"zone":"CENTRAL-EAST","estate":"UBI ROAD","name":"CARITAS CLINIC","address":"BLK 304 UBI AVENUE 1 #01-127","postalCode":"400304","telephone":"67489284","fax":" 67421955","lat":1.329788,"lng":103.901164},{"idx":48,"avivaCode":10126,"zone":"CENTRAL-NORTH","estate":"ANG MO KIO","name":"HEALTHLINK (AMK) MEDICAL CENTRE PTE LTD","address":"BLK 108 ANG MO KIO AVENUE 4 #01-86","postalCode":"560108","telephone":"64571636","fax":" 64563605","lat":1.370993,"lng":103.838058},{"idx":49,"avivaCode":10071,"zone":"CENTRAL-NORTH","estate":"ANG MO KIO","name":"TAN-TEOH CLINIC & SURGERY (AMK)","address":"BLK 302 ANG MO KIO AVENUE 3 #01-1846","postalCode":"560302","telephone":"64520818","fax":" 64525270","lat":1.367164,"lng":103.845547},{"idx":50,"avivaCode":10169,"zone":"CENTRAL-NORTH","estate":"ANG MO KIO","name":"MY FAMILY DOCTOR","address":"BLK 330 ANG MO KIO AVENUE 1 #01-1803","postalCode":"560330","telephone":"65530100","fax":" 64578406","lat":1.362468,"lng":103.85092},{"idx":51,"avivaCode":10203,"zone":"CENTRAL-NORTH","estate":"ANG MO KIO","name":"HEALTHPATH MEDICAL CLINIC AND SURGERY","address":"BLK 338 ANG MO KIO AVENUE 1 #01-1651","postalCode":"560338","telephone":"64832556","lat":1.364089,"lng":103.848657},{"idx":52,"avivaCode":10264,"zone":"CENTRAL-NORTH","estate":"ANG MO KIO","name":"TNG FAMILY CLINIC","address":"BLK 347 ANG MO KIO AVENUE 3 #01-2126","postalCode":"560347","telephone":"64541203","fax":" 64541203","lat":1.367449,"lng":103.848604},{"idx":53,"avivaCode":10049,"zone":"CENTRAL-NORTH","estate":"ANG MO KIO","name":"MHC FAMILY CLINIC (AMK)","address":"BLK 452 ANG MO KIO AVENUE 10 #01-1789","postalCode":"560452","telephone":"65534050","fax":" 64525433","lat":1.368941,"lng":103.85617},{"idx":54,"avivaCode":10245,"zone":"CENTRAL-NORTH","estate":"ANG MO KIO","name":"CHUA MEDICO CLINIC LLP","address":"BLK 529 ANG MO KIO AVENUE 10 #01-2323","postalCode":"560529","telephone":"64562275","fax":" 64562275","lat":1.372408,"lng":103.855542},{"idx":55,"avivaCode":10200,"zone":"CENTRAL-NORTH","estate":"ANG MO KIO","name":"ATRIO FAMILY CLINIC (AMK) PTE LTD","address":"BLK 532 ANG MO KIO AVENUE 10 #01-2461","postalCode":"560532","telephone":"64554282","fax":" 64554280","lat":1.373802,"lng":103.854332},{"idx":56,"avivaCode":10251,"zone":"CENTRAL-NORTH","estate":"ANG MO KIO","name":"ETERNA MEDICAL CLINIC","address":"BLK 629 ANG MO KIO AVENUE 4 #01-994","postalCode":"560629","telephone":"68023050","fax":" 64529784","lat":1.380414,"lng":103.840665},{"idx":57,"avivaCode":10068,"zone":"CENTRAL-NORTH","estate":"ANG MO KIO","name":"SUMMIT MEDICAL CLINIC","address":"BLK 632 ANG MO KIO AVENUE 4 #01-956","postalCode":"560632","telephone":"64560060","fax":" 64532143","lat":1.379856,"lng":103.841437},{"idx":58,"avivaCode":10072,"zone":"CENTRAL-NORTH","estate":"ANG MO KIO","name":"THE CHUNGKIAW FAMILY PRACTICE PTE LTD","address":"17 ANG MO KIO AVENUE 9 #01-06 ANG MO KIO-THYE HUA KWANHOSPITAL","postalCode":"569766","telephone":"64551009","fax":" 64550992","lat":1.384287,"lng":103.840436},{"idx":59,"avivaCode":10198,"zone":"CENTRAL-NORTH","estate":"ANG MO KIO","name":"BEWELL CLINIC","address":"BLK 5012 ANG MO KIO AVENUE 5 #01-01 ANG MO KIO TECHPLACE II","postalCode":"569876","telephone":"65559038","fax":" 65559048","lat":1.377093,"lng":103.865661},{"idx":60,"avivaCode":10082,"zone":"CENTRAL-NORTH","estate":"BISHAN","name":"ASPEN CLINIC","address":"BLK 283 BISHAN STREET 22 #01-185","postalCode":"570283","telephone":"64553829","fax":" 64567217","lat":1.359043,"lng":103.844655},{"idx":61,"avivaCode":10043,"zone":"CENTRAL-NORTH","estate":"BISHAN","name":"LIFELINE BISHAN MEDICAL CLINIC","address":"BLK 501 BISHAN STREET 11 #01-376","postalCode":"570501","telephone":"62598969","fax":" 63582510","lat":1.348346,"lng":103.849313},{"idx":62,"avivaCode":10002,"zone":"CENTRAL-NORTH","estate":"BISHAN","name":"T P SIM FAMILY CLINIC & SURGERY","address":"BLK 509 BISHAN STREET 11 #01-378","postalCode":"570509","telephone":"63538010","fax":" 63538021","lat":1.348536,"lng":103.849561},{"idx":63,"avivaCode":10124,"zone":"CENTRAL-NORTH","estate":"SIN MING","name":"HEALTHCARE FAMILY CLINIC & SURGERY","address":"BLK 403 SIN MING AVENUE #01-311","postalCode":"570403","telephone":"64542373","fax":" 64550869","lat":1.362938,"lng":103.8334},{"idx":64,"avivaCode":10017,"zone":"CENTRAL-NORTH","estate":"THOMSON","name":"CHONG'S CLINIC","address":"234 UPPER THOMSON ROAD","postalCode":"574365","telephone":"64536492","fax":" 64536035","lat":1.353068,"lng":103.835068},{"idx":65,"avivaCode":10098,"zone":"CENTRAL-NORTH","estate":"UPPER SERANGOON","name":"COMFORT CLINIC & SURGERY","address":"BLK 214 SERANGOON AVENUE 4 #01-100","postalCode":"550214","telephone":"62807271","fax":" 62807271","lat":1.357442,"lng":103.873647},{"idx":66,"avivaCode":10064,"zone":"CENTRAL-NORTH","estate":"UPPER SERANGOON","name":"SG CLINIC FAMILY PRACTICE","address":"84 SERANGOON GARDEN WAY","postalCode":"555980","telephone":"63821988","fax":" 62881474","lat":1.364348,"lng":103.864922},{"idx":67,"avivaCode":10298,"zone":"CENTRAL-SOUTH","estate":"ALEXANDRA ROAD","name":"ACACIA MEDICAL CLINIC","address":"180 DEPOT ROAD #01-07 THE INTERLACE","postalCode":"109684","telephone":"66840274","fax":" 66840247","lat":1.281778,"lng":103.803119},{"idx":68,"avivaCode":10224,"zone":"CENTRAL-SOUTH","estate":"ALEXANDRA ROAD","name":"SHENTON WELLNESS CENTRE (PSA BUILDING)","address":"460 ALEXANDRA ROAD #02-15 PSA BUILDING (ALEXANDRARETAIL CENTRE)","postalCode":"119963","telephone":"63761630","fax":" 62709766","lat":1.273987,"lng":103.801497},{"idx":69,"avivaCode":10161,"zone":"CENTRAL-SOUTH","estate":"ALEXANDRA ROAD","name":"TOWN HALL CLINIC (ALEXANDRA)","address":"438A ALEXANDRA ROAD #B1-02 ALEXANDRA TECHNOPARK BLOCKA","postalCode":"119967","telephone":"62788088","fax":" 62728778","lat":1.277777,"lng":103.800983},{"idx":70,"avivaCode":10050,"zone":"CENTRAL-SOUTH","estate":"BUKIT MERAH","name":"NEW HEALTH FAMILY CLINIC PTE LTD","address":"BLK 108 DEPOT ROAD #01-08 DEPOT HEIGHTS SHOPPINGCENTRE","postalCode":"100108","telephone":"62786200","fax":" 62767140","lat":1.281287,"lng":103.810137},{"idx":71,"avivaCode":10218,"zone":"CENTRAL-SOUTH","estate":"BUKIT MERAH","name":"KL NG MEDICAL CLINIC PTE LTD","address":"BLK 1 JALAN BUKIT MERAH #01-4530","postalCode":"150001","telephone":"62712554","fax":" 62712558","lat":1.286551,"lng":103.808036},{"idx":72,"avivaCode":10241,"zone":"CENTRAL-SOUTH","estate":"BUKIT MERAH","name":"DRS KOO, KOH & ASSOCIATES PTE LTD","address":"BLK 163 BUKIT MERAH CENTRAL #01-3609","postalCode":"150163","telephone":"62712395","fax":" 62712396","lat":1.28378,"lng":103.816831},{"idx":73,"avivaCode":10242,"zone":"CENTRAL-SOUTH","estate":"BUKIT MERAH","name":"BUKIT MERAH CENTRAL MEDICAL CENTRE","address":"BLK 165 BUKIT MERAH CENTRAL #03-3683","postalCode":"150165","telephone":"62735455","fax":" 62748846","lat":1.283048,"lng":103.816808},{"idx":74,"avivaCode":10247,"zone":"CENTRAL-SOUTH","estate":"BUKIT MERAH","name":"HONG ASSOCIATES CLINIC","address":"BLK 111 JALAN BUKIT MERAH #01-1682","postalCode":"160111","telephone":"62702233","fax":" 62702708","lat":1.280204,"lng":103.82643},{"idx":75,"avivaCode":10014,"zone":"CENTRAL-SOUTH","estate":"QUEENSTOWN","name":"ALEXANDRA FAMILY CLINIC & SURGERY","address":"BLK 57 DAWSON ROAD #02-02 DAWSON PLACE","postalCode":"142057","telephone":"64797022","fax":" 64798366","lat":1.292747,"lng":103.810757},{"idx":76,"avivaCode":10227,"zone":"CENTRAL-SOUTH","estate":"TIONG BAHRU","name":"ICARE MEDICAL AND WELLNESS CLINIC","address":"BLK 22 HAVELOCK ROAD #01-701","postalCode":"160022","telephone":"62746858","fax":" 62746342","lat":1.288777,"lng":103.828741},{"idx":77,"avivaCode":10190,"zone":"CENTRAL-SOUTH","estate":"TIONG BAHRU","name":"FIRSTHEALTH CLINIC & SURGERY","address":"126 KIM TIAN ROAD #01-04 MULTISTOREY CARPARK","postalCode":"160126","telephone":"66944981","fax":" 66944982","lat":1.282634,"lng":103.829434},{"idx":78,"avivaCode":10186,"zone":"CENTRAL-SOUTH","estate":"TIONG BAHRU","name":"CHUA & PARTNERS FAMILY CLINIC","address":"BLK 18 JALAN MEMBINA #02-05","postalCode":"164018","telephone":"62719004","fax":" 62711601","lat":1.285649,"lng":103.826774},{"idx":79,"avivaCode":10243,"zone":"CENTRAL-SOUTH","estate":"TIONG BAHRU","name":"TIONG BAHRU MEDICAL CENTRE PTE LTD","address":"10 KIM TIAN ROAD KAI FOOK MANSION","postalCode":"169248","telephone":"62727966","fax":" 62787216","lat":1.284937,"lng":103.829381},{"idx":80,"avivaCode":10212,"zone":"CENTRAL-WEST","estate":"CLEMENTI","name":"LC CLINIC MEDICAL SURGERY AESTHETICS","address":"BLK 446 CLEMENTI AVENUE 3 #01-191","postalCode":"120446","telephone":"64562448","fax":" 64571129","lat":1.312587,"lng":103.764985},{"idx":81,"avivaCode":10208,"zone":"CENTRAL-WEST","estate":"CLEMENTI","name":"CENTRAL CLINIC & SURGERY 24HR (CLEMENTI)","address":"BLK 450 CLEMENTI AVENUE 3 #01-291","postalCode":"120450","telephone":"67732925","fax":" 67732927","lat":1.313441,"lng":103.76548},{"idx":82,"avivaCode":10162,"zone":"CENTRAL-WEST","estate":"CLEMENTI","name":"UNION CLINIC AND SURGERY","address":"BLK 722 CLEMENTI WEST STREET 2 #01-168","postalCode":"120722","telephone":"67770783","fax":" 67743543","lat":1.302874,"lng":103.763794},{"idx":83,"avivaCode":10075,"zone":"CENTRAL-WEST","estate":"FARRER ROAD","name":"YAP MEDICARE CLINIC PTE LTD","address":"BLK 8 EMPRESS ROAD #01-03","postalCode":"260008","telephone":"64712338","fax":" 64763371","lat":1.316481,"lng":103.805425},{"idx":84,"avivaCode":10181,"zone":"CITY","estate":"BUGIS","name":"CITYHEALTH CLINIC & SURGERY","address":"152 BEACH ROAD #03-08 GATEWAY EAST","postalCode":"189721","telephone":"62995398","fax":" 62990206","lat":1.298863,"lng":103.859341},{"idx":85,"avivaCode":10121,"zone":"CITY","estate":"BUGIS","name":"HALE MEDICAL CLINIC (CONCOURSE) PTE LTD","address":"300 BEACH ROAD #02-01B THE CONCOURSE","postalCode":"199555","telephone":"62944877","fax":" 62995505","lat":1.30111,"lng":103.862531},{"idx":86,"avivaCode":10257,"zone":"CITY","estate":"CITY","name":"HALL CRAWFURD MEDICAL","address":"3 TEMASEK BOULEVARD #02-482 SUNTEC CITY MALL (NORTHWING BETWEEN TOWER 1 & 2)","postalCode":"038983","telephone":"68049580","fax":" 63419757","lat":1.295719,"lng":103.858752},{"idx":87,"avivaCode":10076,"zone":"CITY","estate":"CITY","name":"HALL BETHESDA MEDICAL CENTRE PTE LTD","address":"3 TEMASEK BOULEVARD #B1-124 SUNTEC CITY MALL","postalCode":"038983","telephone":"63378933","fax":" 68843633","lat":1.295719,"lng":103.858752},{"idx":88,"avivaCode":10211,"zone":"CITY","estate":"CITY","name":"HALL THE MEDICAL CLINIC PTE LTD","address":"63 CHULIA STREET #01-02 OCBC CENTRE (EAST TOWER)","postalCode":"049514","telephone":"65355151","fax":" 65355627","lat":1.285006,"lng":103.849706},{"idx":89,"avivaCode":10153,"zone":"CITY","estate":"CITY","name":"HALL SHALOM MEDICAL DENTAL GROUP","address":"BLK 231 BAIN STREET #03-57 BRAS BASAH COMPLEX","postalCode":"180231","telephone":"63371884","fax":" 63376976","lat":1.296544,"lng":103.853767},{"idx":90,"avivaCode":10194,"zone":"CITY","estate":"RAFFLES PLACE","name":"MW MEDICAL CENTRE","address":"18 CROSS STREET #02-09 CHINA SQUARE CENTRAL","postalCode":"048423","telephone":"62500625","fax":" 62500665","lat":1.283972,"lng":103.847108},{"idx":91,"avivaCode":10159,"zone":"CITY","estate":"RAFFLES PLACE","name":"THE MEDICAL CENTRE CLINIC (HONG LEONG)","address":"16 RAFFLES QUAY #B1-15 HONG LEONG BUILDING","postalCode":"048581","telephone":"62207585","fax":" 62217387","lat":1.281414,"lng":103.850996},{"idx":92,"avivaCode":10110,"zone":"CITY","estate":"RAFFLES PLACE","name":"DRS THOMPSON & THOMSON (RADLINK MEDICARE) PTE LTD","address":"24 RAFFLES PLACE #02-08 CLIFFORD CENTRE","postalCode":"048621","telephone":"65325376","fax":" 65333860","lat":1.283996,"lng":103.851849},{"idx":93,"avivaCode":10285,"zone":"CITY","estate":"RAFFLES PLACE","name":"THE CLINIC @ CAPITAGREEN","address":"138 MARKET STREET #02-01A CAPITAGREEN","postalCode":"048946","telephone":"63846851","fax":" 63846852","lat":1.28185,"lng":103.850051},{"idx":94,"avivaCode":10226,"zone":"CITY","estate":"RAFFLES PLACE","name":"NORTHEAST (TMA) MEDICAL ASSOCIATES PTE LTD","address":"20 MALACCA STREET #B1-00","postalCode":"048979","telephone":"65572770","fax":" 65361413","lat":1.283991,"lng":103.850744},{"idx":95,"avivaCode":10173,"zone":"CITY","estate":"RAFFLES PLACE","name":"THE CLINIC @ ONE GEORGE STREET","address":"1 GEORGE STREET #05-05","postalCode":"049145","telephone":"64385322","fax":" 64381575","lat":1.28554,"lng":103.84786},{"idx":96,"avivaCode":10249,"zone":"CITY","estate":"RAFFLES PLACE","name":"SHENTON MEDICAL GROUP (THE ARCADE)","address":"11 COLLYER QUAY #19-01 THE ARCADE","postalCode":"049317","telephone":"65079730","fax":" 62240608","lat":1.283722,"lng":103.851867},{"idx":97,"avivaCode":10274,"zone":"CITY","estate":"RAFFLES PLACE","name":"SMG MEDICAL","address":"11 COLLYER QUAY #03-28 THE ARCADE","postalCode":"049317","telephone":"62211358","fax":" 62212696","lat":1.283722,"lng":103.851867},{"idx":98,"avivaCode":10077,"zone":"CITY","estate":"RAFFLES PLACE","name":"CLIFFORD DISPENSARY PTE LTD","address":"77 ROBINSON ROAD #06-02 ROBINSON 77","postalCode":"068809","telephone":"62223181","fax":" 65353231","lat":1.276767,"lng":103.848399},{"idx":99,"avivaCode":10104,"zone":"CITY","estate":"RAFFLES PLACE","name":"HEALTHWAY MEDICAL CENTRE (SHENTON WAY)","address":"144 ROBINSON ROAD #01-02/03 ROBINSON SQUARE","postalCode":"068908","telephone":"62202383","fax":" 62202160","lat":1.278161,"lng":103.84818},{"idx":100,"avivaCode":10123,"zone":"CITY","estate":"RAFFLES PLACE","name":"HEALTH PARTNERS MEDICAL CLINIC","address":"100 CECIL STREET #09-01 THE GLOBE","postalCode":"069532","telephone":"62255036","fax":" 62255478","lat":1.281216,"lng":103.84896},{"idx":101,"avivaCode":10004,"zone":"CITY","estate":"TANJONG PAGAR","name":"MHC MEDICAL CENTRE (AMARA)","address":"100 TRAS STREET #15-01 100 AM","postalCode":"079027","telephone":"62255220","fax":" 62255426","lat":1.274662,"lng":103.843547},{"idx":102,"avivaCode":10248,"zone":"CITY","estate":"TANJONG PAGAR","name":"SHENTON MEDICAL GROUP (INTERNATIONAL PLAZA)","address":"10 ANSON ROAD #36-01 INTERNATIONAL PLAZA","postalCode":"079903","telephone":"62202911","fax":" 62246865","lat":1.276084,"lng":103.846234},{"idx":103,"avivaCode":10084,"zone":"EAST","estate":"BEDOK","name":"BEDOK CLINIC & SURGERY","address":"BLK 17 BEDOK SOUTH ROAD #01-565","postalCode":"460017","telephone":"62410943","fax":" 64420966","lat":1.320128,"lng":103.935458},{"idx":104,"avivaCode":10006,"zone":"EAST","estate":"BEDOK","name":"LEE CLINIC","address":"BLK 123 BEDOK NORTH STREET 2 #01-156","postalCode":"460123","telephone":"62418827","fax":" 62414724","lat":1.329206,"lng":103.937307},{"idx":105,"avivaCode":10128,"zone":"EAST","estate":"BEDOK","name":"HONG WHYE CLINIC","address":"BLK 412 BEDOK NORTH AVENUE 2 #01-144","postalCode":"460412","telephone":"64445355","fax":" 64416270","lat":1.329461,"lng":103.931057},{"idx":106,"avivaCode":10252,"zone":"EAST","estate":"BEDOK","name":"BEDOK DAY & NIGHT CLINIC","address":"BLK 418 BEDOK NORTH AVENUE 2 #01-85","postalCode":"460418","telephone":"64441104","fax":" 64441104","lat":1.328712,"lng":103.929916},{"idx":107,"avivaCode":10040,"zone":"EAST","estate":"BEDOK","name":"KCS MEDICAL CENTRE PTE LTD","address":"BLK 515 BEDOK NORTH AVENUE 2 #01-205","postalCode":"460515","telephone":"64438322","fax":" 64418322","lat":1.331893,"lng":103.929886},{"idx":108,"avivaCode":10005,"zone":"EAST","estate":"BEDOK","name":"S T MEDICAL CLINIC","address":"BLK 531 BEDOK NORTH STREET 3 #01-694","postalCode":"460531","telephone":"64440159","fax":" 64440159","lat":1.333137,"lng":103.926282},{"idx":109,"avivaCode":10133,"zone":"EAST","estate":"BEDOK","name":"KHO CLINIC","address":"BLK 537 BEDOK NORTH STREET 3 #01-519","postalCode":"460537","telephone":"62428266","fax":" 62432614","lat":1.332225,"lng":103.923721},{"idx":110,"avivaCode":10132,"zone":"EAST","estate":"BEDOK","name":"ISLAND GROUP CLINIC BEDOK","address":"BLK 25 NEW UPPER CHANGI ROAD #01-646","postalCode":"462025","telephone":"62416666","fax":" 62416102","lat":1.323275,"lng":103.933766},{"idx":111,"avivaCode":10263,"zone":"EAST","estate":"BEDOK","name":"WONG FAMILY CLINIC & SURGERY","address":"BLK 117 BEDOK RESERVOIR ROAD #01-68","postalCode":"470117","telephone":"68461613","fax":" 68486925","lat":1.331428,"lng":103.908507},{"idx":112,"avivaCode":10150,"zone":"EAST","estate":"BEDOK","name":"PHOON CLINIC & SURGERY","address":"BLK 632 BEDOK RESERVOIR ROAD #01-828","postalCode":"470632","telephone":"64452119","fax":" 64487329","lat":1.332012,"lng":103.914159},{"idx":113,"avivaCode":10139,"zone":"EAST","estate":"CHAI CHEE","name":"LIM CLINIC & SURGERY","address":"BLK 20 CHAI CHEE ROAD #01-418/420","postalCode":"461020","telephone":"62412211","fax":" 62412268","lat":1.326338,"lng":103.922786},{"idx":114,"avivaCode":10125,"zone":"EAST","estate":"CHAI CHEE","name":"HEALTHLINE FAMILY CLINIC & SURGERY","address":"BLK 25A CHAI CHEE ROAD #01-467","postalCode":"461025","telephone":"64463260","fax":" 64463259","lat":1.323593,"lng":103.923882},{"idx":115,"avivaCode":10089,"zone":"EAST","estate":"CHAI CHEE","name":"CHAI CHEE CLINIC & SURGERY","address":"BLK 25A CHAI CHEE ROAD #01-453","postalCode":"461025","telephone":"62441231","fax":" 62441215","lat":1.323593,"lng":103.923882},{"idx":116,"avivaCode":10225,"zone":"EAST","estate":"CHANGI","name":"SHENTON MEDICAL GROUP (UE BIZHUB EAST)","address":"2 CHANGI BUSINESS PARK AVENUE 1 #01-03 UE BIZHUB PARK EAST","postalCode":"486015","telephone":"66362490","fax":" 65436410","lat":1.335817,"lng":103.963049},{"idx":117,"avivaCode":10008,"zone":"EAST","estate":"EAST","name":"COAST LIANG CLINIC","address":"695D EAST COAST ROAD","postalCode":"459059","telephone":"62415944","fax":" 64450141","lat":1.312013,"lng":103.922009},{"idx":118,"avivaCode":10100,"zone":"EAST","estate":"JOO CHIAT","name":"DAYSPRING MEDICAL CLINIC (HAIG ROAD)","address":"30 HAIG ROAD","postalCode":"438737","telephone":"68469979","fax":" 67423453","lat":1.31335,"lng":103.895739},{"idx":119,"avivaCode":10090,"zone":"EAST","estate":"KATONG","name":"CHAN FAMILY CLINIC","address":"865 MOUNTBATTEN ROAD #02-81H KATONG SHOPPING CENTRE","postalCode":"437844","telephone":"63454683","lat":1.304069,"lng":103.901301},{"idx":120,"avivaCode":10118,"zone":"EAST","estate":"MARINE PARADE","name":"FAMILY MEDICINE CLINIC","address":"BLK 58 MARINE TERRACE #01-65","postalCode":"440058","telephone":"64491606","fax":" 64491606","lat":1.305873,"lng":103.913675},{"idx":121,"avivaCode":10144,"zone":"EAST","estate":"MARINE PARADE","name":"MARINE PARADE CLINIC","address":"BLK 59 MARINE TERRACE #01-81","postalCode":"440059","telephone":"62419065","fax":" 64434549","lat":1.305857,"lng":103.914938},{"idx":122,"avivaCode":10047,"zone":"EAST","estate":"MARINE PARADE","name":"MEDILINE WEI MIN CLINIC (MARINE PARADE)","address":"BLK 81 MARINE PARADE CENTRAL #01-634","postalCode":"440081","telephone":"62479221","fax":" 62479392","lat":1.302812,"lng":103.907018},{"idx":123,"avivaCode":10142,"zone":"EAST","estate":"PASIR RIS","name":"LOYANG MEDICAL CENTRE BOX","address":"5142 LOYANG CRESCENT LOYANG OFFSHORE SUPPLY BASE","postalCode":"508988","telephone":"65431690","fax":" 65422528","lat":1.379267,"lng":103.971064},{"idx":124,"avivaCode":10149,"zone":"EAST","estate":"PASIR RIS","name":"PARAGON MEDICAL CENTRE PTE LTD","address":"BLK 258 PASIR RIS STREET 21 #02-323 LOYANG POINT","postalCode":"510258","telephone":"65833693","fax":" 65833693","lat":1.36684,"lng":103.964501},{"idx":125,"avivaCode":10044,"zone":"EAST","estate":"PASIR RIS","name":"LILY AW PASIR RIS FAMILY CLINIC & SURGERY","address":"BLK 446 PASIR RIS DRIVE 6 #01-116","postalCode":"510446","telephone":"65822122","fax":" 65842378","lat":1.370292,"lng":103.957363},{"idx":126,"avivaCode":10023,"zone":"EAST","estate":"PASIR RIS","name":"HEALTHWAY MEDICAL CLINIC","address":"BLK 625 ELIAS ROAD #01-322 ELIAS MALL","postalCode":"510625","telephone":"65846822","fax":" 65846883","lat":1.378638,"lng":103.941965},{"idx":127,"avivaCode":10058,"zone":"EAST","estate":"PASIR RIS","name":"OEI FAMILY CLINIC","address":"BLK 625 ELIAS ROAD #02-316 ELIAS MALL","postalCode":"510625","telephone":"65810800","fax":" 65830362","lat":1.378638,"lng":103.941965},{"idx":128,"avivaCode":10148,"zone":"EAST","estate":"PASIR RIS","name":"OXFORD MEDICAL CENTRE","address":"BLK 735 PASIR RIS STREET 72 #02-330 PASIR RIS WEST PLAZA","postalCode":"510735","telephone":"65851496","fax":" 65851496","lat":1.379345,"lng":103.936255},{"idx":129,"avivaCode":10095,"zone":"EAST","estate":"SIMEI","name":"CHUA MEDICAL CENTRE PTE LTD","address":"BLK 248 SIMEI STREET 3 #01-134","postalCode":"520248","telephone":"67853825","fax":" 67853825","lat":1.343775,"lng":103.95339},{"idx":130,"avivaCode":10236,"zone":"EAST","estate":"SIMEI","name":"NORTHEAST (SIMEI) MEDICAL CENTRE PTE LTD","address":"30 SIMEI STREET 3 #02-01 SIMEI MRT STATION","postalCode":"529888","telephone":"67838638","fax":" 67835638","lat":1.343358,"lng":103.953326},{"idx":131,"avivaCode":10130,"zone":"EAST","estate":"TAMPINES","name":"HWANG & LIANG FAMILY CLINIC","address":"BLK 476 TAMPINES STREET 44 #01-173","postalCode":"520476","telephone":"67870778","fax":" 67878777","lat":1.360963,"lng":103.953438},{"idx":132,"avivaCode":10019,"zone":"EAST","estate":"TAMPINES","name":"CHOONG'S CLINIC","address":"BLK 480 TAMPINES STREET 44 #01-261","postalCode":"520480","telephone":"67885190","fax":" 67885190","lat":1.361817,"lng":103.953635},{"idx":133,"avivaCode":10145,"zone":"EAST","estate":"TAMPINES","name":"MEDICARE ASSOCIATES PTE LTD","address":"BLK 482 TAMPINES STREET 43 #01-236","postalCode":"520482","telephone":"67880137","fax":" 67880137","lat":1.361713,"lng":103.952944},{"idx":134,"avivaCode":10151,"zone":"EAST","estate":"TAMPINES","name":"RUBY MEDICAL CENTRE PTE LTD","address":"BLK 505 TAMPINES CENTRAL 1 #01-339","postalCode":"520505","telephone":"67837847","fax":" 67837847","lat":1.355798,"lng":103.945516},{"idx":135,"avivaCode":10033,"zone":"EAST","estate":"TAMPINES","name":"HEALTHWAY TAMPINES CLINIC","address":"BLK 710 TAMPINES STREET 71 #01-134","postalCode":"520710","telephone":"62609081","fax":" 62609083","lat":1.358751,"lng":103.937721},{"idx":136,"avivaCode":10134,"zone":"EAST","estate":"TAMPINES","name":"KOH CLINIC & SURGERY PTE LTD","address":"BLK 801 TAMPINES AVENUE 4 #01-269","postalCode":"520801","telephone":"67822882","fax":" 67864465","lat":1.347292,"lng":103.93797},{"idx":137,"avivaCode":10070,"zone":"EAST","estate":"TAMPINES","name":"TAMPINES MEDILIFE CLINIC","address":"BLK 801 TAMPINES AVENUE 4 #01-263","postalCode":"520801","telephone":"67825142","fax":" 67825142","lat":1.347292,"lng":103.93797},{"idx":138,"avivaCode":10074,"zone":"EAST","estate":"TAMPINES","name":"THE FAMILY MEDICAL CENTRE","address":"BLK 827 TAMPINES STREET 81 #01-148","postalCode":"520827","telephone":"67873328","fax":" 67873328","lat":1.349658,"lng":103.933864},{"idx":139,"avivaCode":10140,"zone":"EAST","estate":"TAMPINES","name":"LITTLE CROSS FAMILY CLINIC PTE LTD","address":"BLK 929 TAMPINES STREET 91 #01-445","postalCode":"520929","telephone":"65440040","fax":" 65440040","lat":1.346385,"lng":103.939468},{"idx":140,"avivaCode":10164,"zone":"EAST","estate":"TAMPINES","name":"UNITED MEDICAL PRACTITIONERS PTE LTD","address":"BLK 139 TAMPINES STREET 11 #01-16","postalCode":"521139","telephone":"67812281","fax":" 67872315","lat":1.346872,"lng":103.944315},{"idx":141,"avivaCode":10250,"zone":"EAST","estate":"TAMPINES","name":"VIVA MEDICAL GROUP CLINIC","address":"519A TAMPINES CENTRAL 8 #01-08","postalCode":"521519","telephone":"66357240","fax":" 66357241","lat":1.357263,"lng":103.940597},{"idx":142,"avivaCode":10039,"zone":"EAST","estate":"TAMPINES","name":"KARRI FAMILY CLINIC","address":"BLK 866A TAMPINES STREET 83 #03-05 TAMPINES CENTRAL COMMUNITYCOMPLEX","postalCode":"521866","telephone":"67850311","fax":" 67857511","lat":1.355276,"lng":103.934417},{"idx":143,"avivaCode":10180,"zone":"EAST","estate":"TAMPINES","name":"FAITH MEDICAL CLINIC & SURGERY","address":"BLK 487C TAMPINES STREET 45 #B1-103","postalCode":"522487","telephone":"67881061","fax":" 67881061","lat":1.360727,"lng":103.957802},{"idx":144,"avivaCode":10256,"zone":"EAST","estate":"TAMPINES","name":"DAYSPRING MEDICAL CLINIC (TAMPINES) PTE LTD","address":"2 TAMPINES CENTRAL 5 #B1-24 CENTURY SQUARE","postalCode":"529509","telephone":"67890123","fax":" 67860103","lat":1.352382,"lng":103.943755},{"idx":145,"avivaCode":10291,"zone":"NORTH","estate":"SEMBAWANG","name":"HEALTHWAY MEDICAL CLINIC (SUN PLAZA)","address":"30 SEMBAWANG DRIVE #03-20 SUN PLAZA","postalCode":"757713","telephone":"65551445","fax":" 65551446","lat":1.448138,"lng":103.819137},{"idx":146,"avivaCode":10061,"zone":"NORTH","estate":"WOODLANDS","name":"REGIONAL PATIENTCARE MEDICAL GROUP PTE LTD","address":"BLK 678 WOODLANDS AVENUE 6 #01-726","postalCode":"730678","telephone":"63669027","fax":" 68939839","lat":1.439993,"lng":103.801521},{"idx":147,"avivaCode":10207,"zone":"NORTH","estate":"WOODLANDS","name":"CENTRAL 24-HR CLINIC (WOODLANDS)","address":"BLK 768 WOODLANDS AVENUE 6 #02-06A WOODLANDS MART","postalCode":"730768","telephone":"63654895","fax":" 63621895","lat":1.446101,"lng":103.79813},{"idx":148,"avivaCode":10267,"zone":"NORTH","estate":"WOODLANDS","name":"DR NAH & LEE FAMILY CLINIC","address":"BLK 780 WOODLANDS CRESCENT #01-03","postalCode":"730780","telephone":"62501528","fax":" 62501779","lat":1.448485,"lng":103.80089},{"idx":149,"avivaCode":10035,"zone":"NORTH","estate":"WOODLANDS","name":"HEALTHWAY MEDICAL CLINIC (WOODLANDS)","address":"BLK 888 WOODLANDS DRIVE 50 #02-737 888 Plaza","postalCode":"730888","telephone":"63649661","fax":" 63649662","lat":1.438244,"lng":103.79546},{"idx":150,"avivaCode":10229,"zone":"NORTH","estate":"WOODLANDS","name":"PROCROSS MEDICAL CENTRE (WOODLANDS)","address":"BLK 689A WOODLANDS DRIVE 75 #01-86","postalCode":"731689","telephone":"62199648","fax":" 62199649","lat":1.444491,"lng":103.807966},{"idx":151,"avivaCode":10223,"zone":"NORTH","estate":"WOODLANDS","name":"SHENTON MEDICAL GROUP (WOODLANDS)","address":"30 WOODLANDS AVENUE 2 #01-47/48/49 WOODLANDS MRT STATION","postalCode":"738343","telephone":"63639415","fax":" 63671483","lat":1.437073,"lng":103.786727},{"idx":152,"avivaCode":10166,"zone":"NORTH","estate":"YISHUN","name":"YISHUN CENTRAL MEDICAL CLINIC","address":"BLK 160 YISHUN STREET 11 #01-212","postalCode":"760160","telephone":"67558931","fax":" 67558931","lat":1.432448,"lng":103.83327},{"idx":153,"avivaCode":10027,"zone":"NORTH","estate":"YISHUN","name":"HEALTHWAY MEDICAL CENTRE","address":"BLK 417 YISHUN AVENUE 11 #01-321","postalCode":"760417","telephone":"67537626","fax":" 67530125","lat":1.424233,"lng":103.846508},{"idx":154,"avivaCode":10233,"zone":"NORTH","estate":"YISHUN","name":"ONECARE CLINIC YISHUN PTE LTD","address":"BLK 431 YISHUN AVENUE 1 #01-04","postalCode":"760431","telephone":"63342373","fax":" 63342374","lat":1.420462,"lng":103.847611},{"idx":155,"avivaCode":10016,"zone":"NORTH","estate":"YISHUN","name":"CHANLAI HEALTHCARE CLINIC","address":"BLK 604 YISHUN STREET 61 #01-325","postalCode":"760604","telephone":"67563456","fax":" 67565600","lat":1.421691,"lng":103.835386},{"idx":156,"avivaCode":10163,"zone":"NORTH","estate":"YISHUN","name":"UNITED HEALTH FAMILY CLINIC & SURGERY","address":"BLK 627 YISHUN STREET 61 #01-63","postalCode":"760627","telephone":"62571182","fax":" 62571182","lat":1.417498,"lng":103.836558},{"idx":157,"avivaCode":10265,"zone":"NORTH","estate":"YISHUN","name":"WELLCARE FAMILY CLINIC","address":"BLK 747 YISHUN STREET 72 #01-106","postalCode":"760747","telephone":"67543740","fax":" 67543742","lat":1.428294,"lng":103.83346},{"idx":158,"avivaCode":10174,"zone":"NORTH","estate":"YISHUN","name":"GREENLINK MEDICAL CLINIC PTE LTD","address":"BLK 807 YISHUN RING ROAD #01-4213","postalCode":"760807","telephone":"67552238","fax":" 67552238","lat":1.416825,"lng":103.831529},{"idx":159,"avivaCode":10062,"zone":"NORTH","estate":"YISHUN","name":"REGIONAL PATIENTCARE MEDICAL GROUP PTE LTD","address":"BLK 932 YISHUN CENTRAL 1 #01-97","postalCode":"760932","telephone":"67561611","fax":" 67568028","lat":1.426392,"lng":103.837023},{"idx":160,"avivaCode":10209,"zone":"NORTH","estate":"YISHUN","name":"CENTRAL CLINIC & SURGERY (YISHUN)","address":"BLK 701A YISHUN AVENUE 5 #01-04","postalCode":"761701","telephone":"67597985","fax":" 67597984","lat":1.429935,"lng":103.827957},{"idx":161,"avivaCode":10261,"zone":"NORTH","estate":"YISHUN","name":"HEARTLAND FAMILY CLINIC","address":"BLK 333C YISHUN STREET 31 #01-167","postalCode":"763333","telephone":"62500655","fax":" 62502803","lat":1.43201,"lng":103.845721},{"idx":162,"avivaCode":10228,"zone":"NORTH-EAST","estate":"BUANGKOK","name":"SHENTON MEDICAL GROUP (BUANGKOK)","address":"10 SENGKANG CENTRAL #01-04 BUANGKOK BUILDING NEL MRTSTATION","postalCode":"545061","telephone":"63153671","fax":" 63158190","lat":1.383038,"lng":103.893103},{"idx":163,"avivaCode":10234,"zone":"NORTH-EAST","estate":"HOUGANG","name":"ONECARE CLINIC HOUGANG PTE LTD","address":"104 HOUGANG AVENUE 1 #01-1125","postalCode":"530104","telephone":"65250325","fax":" 65250396","lat":1.354785,"lng":103.890336},{"idx":164,"avivaCode":10107,"zone":"NORTH-EAST","estate":"HOUGANG","name":"DRS LIM & CHAN CLINIC (HOUGANG)","address":"BLK 106 HOUGANG AVENUE 1 #01-1235","postalCode":"530106","telephone":"62800990","fax":" 62801973","lat":1.354265,"lng":103.890596},{"idx":165,"avivaCode":10152,"zone":"NORTH-EAST","estate":"HOUGANG","name":"SEAH CLINIC","address":"BLK 311 HOUGANG AVENUE 5 #01-183","postalCode":"530311","telephone":"62827254","fax":" 62828769","lat":1.365623,"lng":103.895044},{"idx":166,"avivaCode":10231,"zone":"NORTH-EAST","estate":"HOUGANG","name":"PROCROSS MEDICAL CENTRE (HOUGANG)","address":"BLK 449 HOUGANG AVENUE 10 #B1-509","postalCode":"530449","telephone":"67022848","fax":" 67022840","lat":1.378761,"lng":103.894988},{"idx":167,"avivaCode":10192,"zone":"NORTH-EAST","estate":"HOUGANG","name":"S. LEE CLINIC","address":"BLK 644 HOUGANG AVENUE 8 #01-265","postalCode":"530644","telephone":"63861632","fax":" 63865935","lat":1.371489,"lng":103.881045},{"idx":168,"avivaCode":10060,"zone":"NORTH-EAST","estate":"HOUGANG","name":"PRIMECARE MEDICAL CLINIC","address":"BLK 681 HOUGANG AVENUE 8 #01-823","postalCode":"530681","telephone":"63863007","fax":" 63865529","lat":1.372868,"lng":103.886047},{"idx":169,"avivaCode":10281,"zone":"NORTH-EAST","estate":"HOUGANG","name":"HEALTHWAY MEDICAL CLINIC","address":"BLK 684 HOUGANG AVENUE 8 #01-965","postalCode":"530684","telephone":"63880339","fax":" 63880337","lat":1.374015,"lng":103.886963},{"idx":170,"avivaCode":10290,"zone":"NORTH-EAST","estate":"HOUGANG","name":"FAMILY CARE MEDICAL CENTRE PTE LTD","address":"BLK 916 HOUGANG AVENUE 9 #01-08","postalCode":"530916","telephone":"63855177","fax":" 63124792","lat":1.374892,"lng":103.884163},{"idx":171,"avivaCode":10024,"zone":"NORTH-EAST","estate":"HOUGANG","name":"HEALTHWAY HOUGANG CENTRAL CLINIC","address":"90 HOUGANG AVENUE 10 #04-06 NTUC HOUGANG MALL","postalCode":"538766","telephone":"63437620","fax":" 63437621","lat":1.372551,"lng":103.893906},{"idx":172,"avivaCode":10117,"zone":"NORTH-EAST","estate":"HOUGANG","name":"FAMILY HEALTHCARE CLINIC & SURGERY","address":"BLK 151 SERANGOON NORTH AVENUE 2 #01-35","postalCode":"550151","telephone":"62889557","fax":" 62889557","lat":1.369764,"lng":103.873884},{"idx":173,"avivaCode":10219,"zone":"NORTH-EAST","estate":"HOUGANG","name":"THE FAMILY PHYSICIAN CLINIC","address":"BLK 542B SERANGOON NORTH AVE 3 #01-02","postalCode":"552542","telephone":"65551828","fax":" 65551829","lat":1.3738,"lng":103.871488},{"idx":174,"avivaCode":10214,"zone":"NORTH-EAST","estate":"PUNGGOL","name":"AVENUE K CLINIC @ PUNGGOL PTE LTD","address":"BLK 615A EDGEFIELD PLAINS #01-327","postalCode":"821615","telephone":"68344843","lat":1.403973,"lng":103.909588},{"idx":175,"avivaCode":10269,"zone":"NORTH-EAST","estate":"PUNGGOL","name":"PANHEALTH FAMILY CLINIC","address":"312B SUMANG LINK #01-03","postalCode":"822312","telephone":"69660595","fax":" 69668639","lat":1.411252,"lng":103.900762},{"idx":176,"avivaCode":10301,"zone":"NORTH-EAST","estate":"PUNGGOL","name":"PUNGGOL RIPPLES FAMILY CLINIC","address":"BLK 211D PUNGGOL WALK #01-667","postalCode":"824211","telephone":"65383707","fax":" 66361500","lat":1.401045,"lng":103.899208},{"idx":177,"avivaCode":10297,"zone":"NORTH-EAST","estate":"PUNGGOL","name":"MINMED CLINIC (PUNGGOL)","address":"83 PUNGGOL CENTRAL #02-15 WATERWAY POINT","postalCode":"828761","telephone":"63880123","fax":" 65830103","lat":1.406698,"lng":103.901865},{"idx":178,"avivaCode":10187,"zone":"NORTH-EAST","estate":"PUNGGOL","name":"ETERN MEDICAL CLINIC @ PUNGGOL MRT","address":"70 PUNGGOL CENTRAL #01-05 PUNGGOL MRT STATION","postalCode":"828868","telephone":"64259935","fax":" 64259936","lat":1.404339,"lng":103.902096},{"idx":179,"avivaCode":10271,"zone":"NORTH-EAST","estate":"SELETAR","name":"KANG CLINIC","address":"229 JALAN KAYU","postalCode":"799453","telephone":"64811044","fax":" 67553930","lat":1.395843,"lng":103.872812},{"idx":180,"avivaCode":10031,"zone":"NORTH-EAST","estate":"SENGKANG","name":"HEALTHWAY MEDICAL CLINIC","address":"BLK 118 RIVERVALE DRIVE #02-17 RIVERVALE PLAZA","postalCode":"540118","telephone":"68812689","fax":" 68812686","lat":1.385464,"lng":103.901916},{"idx":181,"avivaCode":10022,"zone":"NORTH-EAST","estate":"SENGKANG","name":"HEALTHWAY COMPASSVALE CLINIC","address":"BLK 267 COMPASSVALE LINK #01-04","postalCode":"540267","telephone":"63438770","fax":" 63438771","lat":1.383792,"lng":103.89705},{"idx":182,"avivaCode":10160,"zone":"NORTH-EAST","estate":"SENGKANG","name":"THE OLIVE TREE FAMILY CLINIC & SURGERY","address":"BLK 303 ANCHORVALE LINK #01-02","postalCode":"540303","telephone":"63888697","fax":" 68813202","lat":1.387612,"lng":103.890661},{"idx":183,"avivaCode":10176,"zone":"NORTH-EAST","estate":"SENGKANG","name":"HEALTHWAY ANCHORVALE CLINIC","address":"BLK 308 ANCHORVALE ROAD #01-03","postalCode":"540308","telephone":"63123106","fax":" 63123107","lat":1.389719,"lng":103.886478},{"idx":184,"avivaCode":10294,"zone":"NORTH-EAST","estate":"SENGKANG","name":"MEDIVENE CLINIC & SURGERY","address":"330 ANCHORVALE STREET #01-05","postalCode":"540330","telephone":"63850441","fax":" 63850442","lat":1.396941,"lng":103.888991},{"idx":185,"avivaCode":10185,"zone":"NORTH-EAST","estate":"SENGKANG","name":"MUTUAL HEALTHCARE PTE LTD","address":"BLK 319B ANCHORVALE DRIVE #01-92","postalCode":"542319","telephone":"64893833","fax":" 64893973","lat":1.391581,"lng":103.89038},{"idx":186,"avivaCode":10196,"zone":"NORTH-EAST","estate":"SENGKANG","name":"FERNVALE FAMILY CLINIC","address":"BLK 405C FERNVALE LANE #01-101","postalCode":"793405","telephone":"68756182","fax":" 68756182","lat":1.389273,"lng":103.87344},{"idx":187,"avivaCode":10066,"zone":"NORTH-WEST","estate":"BUKIT BATOK","name":"SINGAPORE FAMILY CLINIC & SURGERY (BUKIT BATOK)","address":"BLK 153 BUKIT BATOK STREET 11 #01-284","postalCode":"650153","telephone":"65679881","fax":" 65679897","lat":1.347563,"lng":103.744417},{"idx":188,"avivaCode":10015,"zone":"NORTH-WEST","estate":"BUKIT BATOK","name":"BUKIT BATOK MEDICAL CLINIC","address":"BLK 207 BUKIT BATOK STREET 21 #01-114","postalCode":"650207","telephone":"65603311","fax":" 65692400","lat":1.346252,"lng":103.749131},{"idx":189,"avivaCode":10042,"zone":"NORTH-WEST","estate":"BUKIT BATOK","name":"LAI MEDICAL CLINIC PTE LTD","address":"BLK 213 BUKIT BATOK STREET 21 #01-209","postalCode":"650213","telephone":"65632935","fax":" 65638276","lat":1.346795,"lng":103.752289},{"idx":190,"avivaCode":10138,"zone":"NORTH-WEST","estate":"BUKIT BATOK","name":"LIFELINE NEIGHBOURHOOD MEDICAL CLINIC PTE LTD","address":"BLK 280 BUKIT BATOK EAST AVENUE 3 #01-333","postalCode":"650280","telephone":"65678316","fax":" 65678316","lat":1.347785,"lng":103.756976},{"idx":191,"avivaCode":10273,"zone":"NORTH-WEST","estate":"BUKIT BATOK","name":"ONECARE CLINIC BUKIT BATOK","address":"BLK 630 BUKIT BATOK CENTRAL #01-148","postalCode":"650630","telephone":"65636913","fax":" 65636973","lat":1.350196,"lng":103.749965},{"idx":192,"avivaCode":10213,"zone":"NORTH-WEST","estate":"BUKIT BATOK","name":"PHOENIX MEDICAL GROUP","address":"4 HILLVIEW RISE #02-20 HILLV2","postalCode":"667979","telephone":"67107157","fax":" 67107167","lat":1.3639,"lng":103.764268},{"idx":193,"avivaCode":10137,"zone":"NORTH-WEST","estate":"BUKIT PANJANG","name":"LIFELINE BUKIT PANJANG MEDICAL CLINIC","address":"BLK 103 GANGSA ROAD #01-37","postalCode":"670103","telephone":"67605788","fax":" 67630717","lat":1.37876,"lng":103.768563},{"idx":194,"avivaCode":10092,"zone":"NORTH-WEST","estate":"BUKIT PANJANG","name":"CHONG & LIM FAMILY CLINIC","address":"BLK 103 GANGSA ROAD #01-39","postalCode":"670103","telephone":"67626881","fax":" 68937584","lat":1.37876,"lng":103.768563},{"idx":195,"avivaCode":10029,"zone":"NORTH-WEST","estate":"BUKIT PANJANG","name":"HEALTHWAY MEDICAL CLINIC","address":"BLK 445 FAJAR ROAD #02-534 FAJAR SHOPPING CENTRE","postalCode":"670445","telephone":"67690600","fax":" 67690900","lat":1.383541,"lng":103.770801},{"idx":196,"avivaCode":10088,"zone":"NORTH-WEST","estate":"BUKIT PANJANG","name":"CASHEW MEDICAL & SURGERY","address":"BLK 445 FAJAR ROAD #02-522 FAJAR SHOPPING CENTRE","postalCode":"670445","telephone":"67634255","fax":" 67630802","lat":1.383541,"lng":103.770801},{"idx":197,"avivaCode":10286,"zone":"NORTH-WEST","estate":"BUKIT PANJANG","name":"ONECARE CLINIC BUKIT PANJANG PTE LTD","address":"BLK 547 SEGAR ROAD #01-05","postalCode":"670547","telephone":"62508533","fax":" 62509533","lat":1.38837,"lng":103.769555},{"idx":198,"avivaCode":10097,"zone":"NORTH-WEST","estate":"CHOA CHU KANG","name":"CLINICAL ASSOCIATES MEDICAL CENTRE","address":"BLK 137 TECK WHYE LANE #01-313","postalCode":"680137","telephone":"67624180","fax":" 67624152","lat":1.379963,"lng":103.752668},{"idx":199,"avivaCode":10202,"zone":"NORTH-WEST","estate":"CHOA CHU KANG","name":"HEALTHWERKZ MEDICAL CENTRE (CCK) PTE LTD","address":"BLK 225 CHOA CHU KANG CENTRAL #01-199","postalCode":"680225","telephone":"67662827","fax":" 67660568","lat":1.381059,"lng":103.744844},{"idx":200,"avivaCode":10122,"zone":"NORTH-WEST","estate":"CHOA CHU KANG","name":"HARMONY FAMILY CLINIC","address":"BLK 235 CHOA CHU KANG CENTRAL #B1-25","postalCode":"680235","telephone":"67623979","fax":" 67621293","lat":1.379706,"lng":103.748803},{"idx":201,"avivaCode":10197,"zone":"NORTH-WEST","estate":"CHOA CHU KANG","name":"THE PREMIER MEDICAL CLINIC","address":"BLK 304 CHOA CHU KANG AVENUE 4 #01-651","postalCode":"680304","telephone":"67600643","fax":" 67631712","lat":1.384512,"lng":103.743129},{"idx":202,"avivaCode":10114,"zone":"NORTH-WEST","estate":"CHOA CHU KANG","name":"EVERCARE MEDICAL CLINIC (475) PTE LTD","address":"BLK 475 CHOA CHU KANG AVENUE 3 #02-02 SUNSHINE PLACE","postalCode":"680475","telephone":"67666465","fax":" 67690767","lat":1.377906,"lng":103.73864},{"idx":203,"avivaCode":10032,"zone":"NORTH-WEST","estate":"CHOA CHU KANG","name":"HEALTHWAY MEDICAL CLINIC","address":"BLK 475 CHOA CHU KANG AVENUE 3 #02-03 SUNSHINE PLACE","postalCode":"680475","telephone":"68926330","fax":" 68926329","lat":1.377906,"lng":103.73864},{"idx":204,"avivaCode":10021,"zone":"NORTH-WEST","estate":"CHOA CHU KANG","name":"HEALTHWAY MEDICAL CLINIC","address":"BLK 534 CHOA CHU KANG STREET 51 #01-37 LIMBANG SHOPPING CENTRE","postalCode":"680534","telephone":"67622555","fax":" 67628098","lat":1.392193,"lng":103.743325},{"idx":205,"avivaCode":10183,"zone":"SOUTH","estate":"HARBOURFRONT","name":"MINT MEDICAL CENTRE","address":"1 HARBOURFRONT PLACE #01-10 HARBOURFRONT TOWER ONE","postalCode":"098633","telephone":"62729372","fax":" 62729218","lat":1.264909,"lng":103.819296},{"idx":206,"avivaCode":10013,"zone":"SOUTH","estate":"HARBOURFRONT","name":"CLIFFORD DISPENSARY PTE LTD","address":"3 HARBOURFRONT PLACE #04-01 HARBOURFRONT TOWER TWO","postalCode":"099254","telephone":"63760788","fax":" 63760775","lat":1.264649,"lng":103.818751},{"idx":207,"avivaCode":10205,"zone":"SOUTH","estate":"SENTOSA","name":"HEALTHCARE MEDICAL @ SENTOSA","address":"31 OCEAN WAY #01-21 QUAYSIDE ISLE","postalCode":"098375","telephone":"62684082","fax":" 62684074","lat":1.247524,"lng":103.842072},{"idx":208,"avivaCode":10199,"zone":"SOUTH-WEST","estate":"BUONA VISTA","name":"THE CLINIC @ FUSIONOPOLIS","address":"1 FUSIONOPOLISPLACE #01-05 GALAXIS","postalCode":"138522","telephone":"64660602","fax":" 64660603","lat":1.300379,"lng":103.788209},{"idx":209,"avivaCode":10268,"zone":"SOUTH-WEST","estate":"BUONA VISTA","name":"FUSION MEDICAL & HEALTH SCREENING CENTRE","address":"1 FUSIONOPOLIS LINK #01-05 NEXUS @ONE-NORTH","postalCode":"138542","telephone":"62506548","fax":" 62506548","lat":1.299226,"lng":103.789631},{"idx":210,"avivaCode":10101,"zone":"SOUTH-WEST","estate":"DOVER","name":"DOVER CLINIC AND SURGERY PTE LTD","address":"BLK 28 DOVER CRESCENT #01-89","postalCode":"130028","telephone":"67757410","fax":" 67762851","lat":1.304854,"lng":103.781665},{"idx":211,"avivaCode":10189,"zone":"SOUTH-WEST","estate":"DOVER","name":"TRINITY MEDICAL CLINIC","address":"BLK 19A DOVER CRESCENT #01-01 DOVER VILLE","postalCode":"131019","telephone":"67788868","fax":" 67788868","lat":1.307381,"lng":103.784538},{"idx":212,"avivaCode":10102,"zone":"SOUTH-WEST","estate":"DOVER","name":"DOVER MEDICAL CENTRE","address":"BLK 69 AYER RAJAH CRESCENT #01-03 AYER RAJAH AMENITY CENTRE","postalCode":"139961","telephone":"67756266","fax":" 67756966","lat":1.29622,"lng":103.786913},{"idx":213,"avivaCode":10220,"zone":"WEST","estate":"BOON LAY","name":"PIONEER MEDICARE","address":"3 SOON LEE STREET #01-08 PIONEER JUNCTION","postalCode":"627606","telephone":"63397422","fax":" 63397427","lat":1.334137,"lng":103.697079},{"idx":214,"avivaCode":10235,"zone":"WEST","estate":"BOON LAY","name":"ONECARE CLINIC BOON LAY","address":"221 BOON LAY PLACE #01-152 BOON LAY SHOPPING CENTRE","postalCode":"640221","telephone":"62611580","fax":" 62611584","lat":1.346493,"lng":103.712618},{"idx":215,"avivaCode":10085,"zone":"WEST","estate":"BOON LAY","name":"BOON LAY CLINIC & SURGERY","address":"BLK 221 BOON LAY PLACE #01-240/244 BOON LAY SHOPPINGCENTRE","postalCode":"640221","telephone":"62655247","fax":" 62680866","lat":1.346493,"lng":103.712618},{"idx":216,"avivaCode":10099,"zone":"WEST","estate":"BOON LAY","name":"COMMUNITY MEDICAL CLINIC","address":"BLK 221 BOON LAY PLACE #02-160 BOON LAY SHOPPING CENTRE","postalCode":"640221","telephone":"62610672","fax":" 62610672","lat":1.346493,"lng":103.712618},{"idx":217,"avivaCode":10254,"zone":"WEST","estate":"BOON LAY","name":"BLESS MEDICAL CENTRE","address":"BLK 221 BOON LAY PLACE #01-108 BOON LAY SHOPPING CENTRE","postalCode":"640221","telephone":"62664119","fax":" 62667855","lat":1.346493,"lng":103.712618},{"idx":218,"avivaCode":10215,"zone":"WEST","estate":"BOON LAY","name":"MY DOCTOR @ LAKESIDE","address":"BLK 201 BOON LAY WAY #01-05 LAKESIDE MRT STATION","postalCode":"649845","telephone":"62657270","fax":" 62652170","lat":1.344177,"lng":103.72038},{"idx":219,"avivaCode":10193,"zone":"WEST","estate":"JURONG EAST","name":"TRINITY MEDICAL CLINIC","address":"BLK 130 JURONG GATEWAY ROAD #02-205/207","postalCode":"600130","telephone":"65607088","fax":" 65665067","lat":1.334859,"lng":103.739077},{"idx":220,"avivaCode":10069,"zone":"WEST","estate":"JURONG EAST","name":"SUMMIT MEDICAL CLINIC","address":"BLK 134 JURONG GATEWAY ROAD #01-307","postalCode":"600134","telephone":"65673003","fax":" 65673003","lat":1.334086,"lng":103.738868},{"idx":221,"avivaCode":10217,"zone":"WEST","estate":"JURONG EAST","name":"BEWELL CLINIC @ DORM PTE LTD","address":"28 TOH GUAN ROAD EAST WESTLITE DORMITORY MEZZANINEFLOOR","postalCode":"608596","telephone":"65656338","fax":" 65153105","lat":1.336398,"lng":103.751817},{"idx":222,"avivaCode":10045,"zone":"WEST","estate":"JURONG WEST","name":"LOI + WONG CLINIC & SURGERY","address":"BLK 492 JURONG WEST STREET 41 #01-08","postalCode":"640492","telephone":"65626676","fax":" 65626676","lat":1.350115,"lng":103.724463},{"idx":223,"avivaCode":10278,"zone":"WEST","estate":"JURONG WEST","name":"ICON MEDICAL CLINIC","address":"BLK 517 JURONG WEST STREET 52 #01-101","postalCode":"640517","telephone":"65600521","fax":" 65691075","lat":1.345729,"lng":103.719582},{"idx":224,"avivaCode":10266,"zone":"WEST","estate":"JURONG WEST","name":"TAYKA MEDICAL FAMILY CLINIC (JURONG WEST)","address":"BLK 526 JURONG WEST STREET 52 #01-323","postalCode":"640526","telephone":"65645528","fax":" 65649678","lat":1.34762,"lng":103.717019},{"idx":225,"avivaCode":10025,"zone":"WEST","estate":"JURONG WEST","name":"HEALTHWAY JURONG WEST CLINIC","address":"BLK 690 JURONG WEST CENTRAL 1 #01-193","postalCode":"640690","telephone":"67921812","fax":" 67924480","lat":1.341484,"lng":103.706698},{"idx":226,"avivaCode":10109,"zone":"WEST","estate":"JURONG WEST","name":"DRS OH, LIM, WONG AND PARTNERS","address":"BLK 959 JURONG WEST STREET 92 #01-154","postalCode":"640959","telephone":"67913988","fax":" 67918802","lat":1.341479,"lng":103.690608},{"idx":227,"avivaCode":10034,"zone":"WEST","estate":"JURONG WEST","name":"HEALTHWAY MEDICAL CLINIC","address":"BLK 960 JURONG WEST STREET 92 #01-166","postalCode":"640960","telephone":"67915680","fax":" 67918133","lat":1.341376,"lng":103.691304},{"idx":228,"avivaCode":10206,"zone":"WEST","estate":"JURONG WEST","name":"GJ MEDICAL CLINIC (JURONG POINT)","address":"1 JURONG WEST CENTRAL 2 #B1A-19A JURONG POINT SHOPPINGCENTRE","postalCode":"648886","telephone":"67958658","fax":" 67958659","lat":1.340025,"lng":103.706514},{"idx":229,"avivaCode":10113,"zone":"WEST","estate":"JURONG WEST","name":"FULLERTON HEALTHCARE GROUP @ DRS TRYTHALL HOYDAVIES, JURONG POINT","address":"1 JURONG WEST CENTRAL 2 #B1A-19B JURONG POINT","postalCode":"648886","telephone":"67930611","fax":" 67931393","lat":1.340025,"lng":103.706514},{"idx":230,"avivaCode":10156,"zone":"WEST","estate":"TEBAN","name":"TEBAN GARDEN CLINIC","address":"BLK 61 TEBAN GARDENS ROAD #01-01","postalCode":"600061","telephone":"65619052","fax":" 65623906","lat":1.322267,"lng":103.738321},{"idx":231,"avivaCode":10051,"zone":"WEST","estate":"TEBAN","name":"NEWLIFE FAMILY CLINIC & SURGERY PTE LTD","address":"BLK 61 TEBAN GARDENS ROAD #01-20","postalCode":"600061","telephone":"65663770","fax":" 65668941","lat":1.322267,"lng":103.738321},{"idx":232,"avivaCode":10259,"zone":"WEST","estate":"TUAS","name":"TUAS MEDICAL CENTRE","address":"70 TUAS SOUTH AVENUE 1 #01-08/09","postalCode":"637285","telephone":"63344402","fax":" 63345404","lat":1.314284,"lng":103.625753}]
